id,name,latitude,longitude
1,Warehouse (Depot),17.4374,78.3985
2,Kukatpally,17.4849,78.3938
3,Hitech City,17.4504,78.3809
4,Gachibowli,17.4401,78.3489
5,Madhapur,17.4480,78.3910
6,Kondapur,17.4660,78.3570
7,Manikonda,17.4048,78.3924
8,Narsingi,17.3904,78.3636
9,Puppalaguda,17.3993,78.3792
10,Kokapet,17.4130,78.3575
